City_ID,City,Cloudiness,Country,Current Description,Date,Humidity,Lat,Lng,Max Temp,Rain (inches),Snow (inches),Wind Speed
0,Qaanaaq,100,GL,overcast clouds,2020-06-20 03:18:34,83,77.48,-69.36,34.21,0.0,0.0,2.28
1,Albany,72,US,broken clouds,2020-06-20 03:18:06,85,42.6,-73.97,75.99,0.0,0.0,3.11
2,Severo-Kurilsk,100,RU,overcast clouds,2020-06-20 03:18:05,90,50.68,156.12,42.33,0.0,0.0,18.52
3,Mataura,84,NZ,broken clouds,2020-06-20 03:17:41,80,-46.19,168.86,46.63,0.0,0.0,1.63
4,Palu,85,ID,light rain,2020-06-20 03:19:17,61,-0.89,119.87,87.85,0.38,0.38,2.8
5,Ushuaia,75,AR,broken clouds,2020-06-20 03:17:40,93,-54.8,-68.3,35.6,0.0,0.0,3.36
6,Salem,40,IN,haze,2020-06-20 03:19:18,70,11.65,78.17,84.2,0.0,0.0,2.24
7,Urumqi,1,CN,clear sky,2020-06-20 03:19:18,25,43.8,87.6,77.0,0.0,0.0,4.47
8,Rikitea,100,PF,overcast clouds,2020-06-20 03:17:33,81,-23.12,-134.97,75.38,0.0,0.0,18.25
9,Puerto Ayora,68,EC,broken clouds,2020-06-20 03:17:45,93,-0.74,-90.35,70.0,0.0,0.0,1.99
10,Akyab,83,MM,moderate rain,2020-06-20 03:19:19,78,20.15,92.9,84.54,2.54,2.54,12.57
11,Santa Leopoldina,75,BR,broken clouds,2020-06-20 03:19:19,100,-20.1,-40.53,70.0,0.0,0.0,2.98
12,Fallon,75,US,broken clouds,2020-06-20 03:15:39,11,39.47,-118.78,84.2,0.0,0.0,8.05
13,Provideniya,25,RU,scattered clouds,2020-06-20 03:19:04,41,64.38,-173.3,58.86,0.0,0.0,5.44
14,Aktash,0,RU,clear sky,2020-06-20 03:19:20,40,50.3,87.73,55.69,0.0,0.0,4.59
15,Saint-Philippe,75,RE,broken clouds,2020-06-20 03:17:55,68,-21.36,55.77,69.8,0.0,0.0,14.99
16,Hithadhoo,100,MV,light rain,2020-06-20 03:17:43,77,-0.6,73.08,82.54,0.89,0.89,16.87
17,Jever,100,DE,overcast clouds,2020-06-20 03:19:20,87,53.58,7.9,57.2,0.0,0.0,4.7
18,Khuzdar,0,PK,clear sky,2020-06-20 03:19:21,47,27.74,66.64,80.73,0.0,0.0,5.21
19,Butaritari,100,KI,overcast clouds,2020-06-20 03:18:29,84,3.07,172.79,80.56,0.0,0.0,17.58
20,Busselton,0,AU,clear sky,2020-06-20 03:17:58,68,-33.65,115.33,55.99,0.0,0.0,4.0
21,Atuona,84,PF,broken clouds,2020-06-20 03:17:44,75,-9.8,-139.03,80.29,0.0,0.0,14.2
22,Chokurdakh,55,RU,broken clouds,2020-06-20 03:17:51,17,70.63,147.92,91.33,0.0,0.0,10.2
23,Hambantota,20,LK,few clouds,2020-06-20 03:18:55,79,6.12,81.12,84.2,0.0,0.0,10.29
24,Puerto Escondido,97,MX,moderate rain,2020-06-20 03:19:22,78,15.85,-97.07,82.04,1.47,1.47,2.17
25,Vaini,75,TO,broken clouds,2020-06-20 03:17:52,57,-21.2,-175.2,77.0,0.0,0.0,12.75
26,Punta Arenas,70,CL,broken clouds,2020-06-20 03:14:25,84,-53.15,-70.92,35.6,0.0,0.0,11.41
27,Hofn,100,IS,overcast clouds,2020-06-20 03:18:21,83,64.25,-15.21,51.03,0.0,0.0,16.98
28,Tuatapere,46,NZ,scattered clouds,2020-06-20 03:19:23,76,-46.13,167.68,50.58,0.0,0.0,3.51
29,New Norfolk,89,AU,overcast clouds,2020-06-20 03:18:04,81,-42.78,147.06,54.0,0.0,0.0,1.99
30,Ulladulla,0,AU,clear sky,2020-06-20 03:19:23,45,-35.35,150.47,68.0,0.0,0.0,4.7
31,Brae,98,GB,overcast clouds,2020-06-20 03:19:24,93,60.4,-1.35,55.4,0.0,0.0,5.82
32,Carnarvon,0,AU,clear sky,2020-06-20 03:18:30,64,-24.87,113.63,68.0,0.0,0.0,5.82
33,Saint George,1,US,clear sky,2020-06-20 03:18:34,7,37.1,-113.58,90.0,0.0,0.0,8.05
34,Kadnikov,79,RU,broken clouds,2020-06-20 03:19:24,79,59.5,40.34,50.23,0.0,0.0,9.69
35,Seoul,40,KR,scattered clouds,2020-06-20 03:14:27,54,37.57,126.98,84.2,0.0,0.0,5.82
36,Thompson,90,CA,light intensity drizzle,2020-06-20 03:17:58,93,55.74,-97.86,46.4,0.0,0.0,10.29
37,Salalah,75,OM,broken clouds,2020-06-20 03:18:54,78,17.02,54.09,82.4,0.0,0.0,3.36
38,Vao,38,NC,scattered clouds,2020-06-20 03:19:25,81,-22.67,167.48,68.83,0.0,0.0,21.14
39,Cape Town,75,ZA,broken clouds,2020-06-20 03:15:11,93,-33.93,18.42,61.0,0.0,0.0,8.05
40,Vardo,100,NO,overcast clouds,2020-06-20 03:17:52,76,70.37,31.11,44.11,0.0,0.0,15.19
41,Hilo,90,US,overcast clouds,2020-06-20 03:18:15,61,19.73,-155.09,80.6,0.0,0.0,9.17
42,Huancavelica,1,PE,clear sky,2020-06-20 03:19:26,92,-12.77,-74.98,33.94,0.0,0.0,0.78
43,Kapaa,75,US,broken clouds,2020-06-20 03:17:57,69,22.08,-159.32,80.6,0.0,0.0,17.22
44,Hermanus,42,ZA,scattered clouds,2020-06-20 03:17:59,95,-34.42,19.23,55.99,0.0,0.0,8.9
45,Port Lincoln,58,AU,broken clouds,2020-06-20 03:19:04,63,-34.73,135.87,54.86,0.0,0.0,23.6
46,Tuktoyaktuk,90,CA,light rain,2020-06-20 03:17:46,87,69.45,-133.04,42.8,0.0,0.0,10.29
47,Kruisfontein,33,ZA,scattered clouds,2020-06-20 03:17:59,33,-34.0,24.73,60.13,0.0,0.0,13.47
48,Sitka,90,US,moderate rain,2020-06-20 03:14:36,93,57.05,-135.33,55.4,1.02,1.02,5.82
49,Sudbury,5,CA,clear sky,2020-06-20 03:19:28,64,46.49,-80.99,68.0,0.0,0.0,5.82
50,Tasiilaq,100,GL,overcast clouds,2020-06-20 03:17:49,83,65.61,-37.64,37.76,0.0,0.0,4.85
51,Russell,1,US,clear sky,2020-06-20 03:19:28,88,32.35,-85.2,80.6,0.0,0.0,3.69
52,Hasaki,75,JP,broken clouds,2020-06-20 03:17:59,61,35.73,140.83,84.0,0.0,0.0,2.24
53,Yellowknife,20,CA,few clouds,2020-06-20 03:17:48,27,62.46,-114.35,79.0,0.0,0.0,12.75
54,Jamestown,1,US,mist,2020-06-20 03:17:53,100,42.1,-79.24,64.99,0.0,0.0,4.7
55,Torbay,90,CA,fog,2020-06-20 03:17:40,100,47.67,-52.73,44.01,0.0,0.0,8.05
56,Kavaratti,99,IN,light rain,2020-06-20 03:19:30,75,10.57,72.64,84.4,0.13,0.13,15.12
57,Nelson Bay,9,AU,clear sky,2020-06-20 03:19:30,72,-32.72,152.15,66.99,0.0,0.0,6.93
58,Hobart,75,AU,broken clouds,2020-06-20 03:17:02,93,-42.88,147.33,55.0,0.0,0.0,4.7
59,Paita,0,PE,clear sky,2020-06-20 03:19:30,84,-5.09,-81.11,64.98,0.0,0.0,13.02
60,Gat,41,IL,scattered clouds,2020-06-20 03:19:31,87,31.61,34.76,70.0,0.0,0.0,7.16
61,Port Elizabeth,0,ZA,clear sky,2020-06-20 03:18:02,36,-33.92,25.57,62.6,0.0,0.0,8.05
62,Lagoa,54,PT,broken clouds,2020-06-20 03:19:02,89,39.05,-27.98,64.62,0.0,0.0,23.04
63,Lorengau,92,PG,moderate rain,2020-06-20 03:19:06,72,-2.02,147.27,84.99,1.63,1.63,5.14
64,Ramshir,0,IR,clear sky,2020-06-20 03:19:32,42,30.89,49.41,80.6,0.0,0.0,6.93
65,Laguna,1,US,clear sky,2020-06-20 03:17:53,42,38.42,-121.42,82.0,0.0,0.0,9.17
66,Sept-Iles,75,CA,broken clouds,2020-06-20 03:19:32,87,50.2,-66.38,54.0,0.0,0.0,11.41
67,Rawson,8,AR,clear sky,2020-06-20 03:19:33,51,-43.3,-65.1,48.15,0.0,0.0,15.5
68,Codrington,23,AU,few clouds,2020-06-20 03:19:33,67,-38.27,141.97,57.69,0.0,0.0,14.52
69,Mayo,75,US,light rain,2020-06-20 03:19:34,78,38.89,-76.51,73.99,0.76,0.76,9.17
70,Kyra,40,RU,light rain,2020-06-20 03:19:34,53,49.58,111.98,72.09,0.44,0.44,4.47
71,Avarua,56,CK,broken clouds,2020-06-20 03:17:44,64,-21.21,-159.78,73.4,0.0,0.0,9.17
72,Bredasdorp,26,ZA,scattered clouds,2020-06-20 03:17:39,87,-34.53,20.04,57.2,0.0,0.0,5.5
73,Arraial Do Cabo,0,BR,clear sky,2020-06-20 03:17:48,81,-22.97,-42.03,71.83,0.0,0.0,9.31
74,Touros,90,BR,moderate rain,2020-06-20 03:19:35,100,-5.2,-35.46,73.4,0.0,0.0,9.17
75,Mahebourg,75,MU,shower rain,2020-06-20 03:18:03,73,-20.41,57.7,71.6,0.0,0.0,14.99
76,Barrow,1,US,clear sky,2020-06-20 03:18:05,70,71.29,-156.79,42.8,0.0,0.0,8.05
77,Tokur,75,RU,broken clouds,2020-06-20 03:19:36,54,53.13,132.9,61.88,0.0,0.0,2.06
78,Bolobo,0,CD,clear sky,2020-06-20 03:19:36,62,-2.17,16.23,70.25,0.0,0.0,2.42
79,Kyaikkami,70,MM,moderate rain,2020-06-20 03:19:37,82,16.08,97.57,82.04,1.42,1.42,10.29
80,Asau,89,RO,overcast clouds,2020-06-20 03:18:58,100,46.43,26.4,63.0,0.0,0.0,5.53
81,Skjervoy,0,NO,clear sky,2020-06-20 03:19:37,76,70.03,20.97,44.71,0.0,0.0,8.63
82,Bocana De Paiwas,28,NI,light rain,2020-06-20 03:19:37,93,12.79,-85.12,73.92,0.11,0.11,6.31
83,Ballina,90,AU,overcast clouds,2020-06-20 03:19:38,68,-28.87,153.57,66.2,0.0,0.0,5.82
84,Victoria,21,HK,few clouds,2020-06-20 03:17:10,62,22.29,114.16,93.0,0.0,0.0,13.0
85,Omsukchan,93,RU,overcast clouds,2020-06-20 03:19:38,55,62.53,155.8,63.03,0.0,0.0,3.29
86,Khani,75,GE,broken clouds,2020-06-20 03:19:38,93,41.96,42.96,62.6,0.0,0.0,3.36
87,Tual,82,ID,broken clouds,2020-06-20 03:19:39,79,-5.67,132.75,80.49,0.0,0.0,21.34
88,Roma,20,US,few clouds,2020-06-20 03:19:39,60,43.21,-75.46,75.2,0.0,0.0,2.39
89,Saskylakh,51,RU,broken clouds,2020-06-20 03:18:24,27,71.92,114.08,81.54,0.0,0.0,8.14
90,Bengkulu,32,ID,scattered clouds,2020-06-20 03:18:11,65,-3.8,102.27,83.1,0.0,0.0,1.92
91,Srednekolymsk,83,RU,broken clouds,2020-06-20 03:19:39,20,67.45,153.68,88.52,0.0,0.0,13.27
92,Leningradskiy,11,RU,few clouds,2020-06-20 03:19:40,57,69.38,178.42,47.28,0.0,0.0,5.35
93,Sapa,96,PH,overcast clouds,2020-06-20 03:19:40,60,5.15,120.32,86.9,0.0,0.0,4.76
94,Abeche,82,TD,broken clouds,2020-06-20 03:19:40,66,13.83,20.83,79.25,0.0,0.0,8.37
95,Huarmey,56,PE,broken clouds,2020-06-20 03:19:41,86,-10.07,-78.15,62.49,0.0,0.0,8.14
96,Dunedin,48,NZ,scattered clouds,2020-06-20 03:19:41,72,-45.87,170.5,52.0,0.0,0.0,11.01
97,Adeje,20,ES,few clouds,2020-06-20 03:19:41,77,28.12,-16.73,73.0,0.0,0.0,11.41
98,Ponta Do Sol,75,PT,broken clouds,2020-06-20 03:19:42,72,32.67,-17.1,68.0,0.0,0.0,6.93
99,Itoman,75,JP,shower rain,2020-06-20 03:19:42,84,26.12,127.67,87.8,0.0,0.0,13.87
100,Basoko,43,CD,scattered clouds,2020-06-20 03:19:42,70,1.24,23.62,70.72,0.0,0.0,1.66
101,Dondo,40,MZ,scattered clouds,2020-06-20 03:19:42,82,-19.61,34.74,64.4,0.0,0.0,11.41
102,Kahului,40,US,scattered clouds,2020-06-20 03:15:07,48,20.89,-156.47,84.2,0.0,0.0,21.92
103,Palauig,45,PH,light rain,2020-06-20 03:19:43,69,15.44,119.9,85.8,0.42,0.42,6.17
104,Novyy Svit,86,UA,overcast clouds,2020-06-20 03:19:43,56,47.81,38.02,67.89,0.0,0.0,10.78
105,Dharmavaram,60,IN,broken clouds,2020-06-20 03:19:44,58,14.43,77.72,83.93,0.0,0.0,18.45
106,Castro,15,BR,few clouds,2020-06-20 03:17:47,94,-24.79,-50.01,57.69,0.0,0.0,5.08
107,Okato,8,NZ,clear sky,2020-06-20 03:19:44,91,-39.2,173.88,55.99,0.0,0.0,1.01
108,Carutapera,32,BR,light rain,2020-06-20 03:19:10,94,-1.2,-46.02,74.21,0.61,0.61,5.06
109,Chuy,96,UY,overcast clouds,2020-06-20 03:18:40,94,-33.7,-53.46,54.75,0.0,0.0,6.85
110,Ixtapa,20,MX,few clouds,2020-06-20 03:19:45,69,20.7,-105.2,80.6,0.0,0.0,6.93
111,Humaita,27,BR,scattered clouds,2020-06-20 03:19:45,75,-7.51,-63.02,76.59,0.0,0.0,2.37
112,Clyde River,1,CA,clear sky,2020-06-20 03:18:15,100,70.47,-68.59,30.2,0.0,0.0,14.99
113,Upernavik,23,GL,few clouds,2020-06-20 03:18:27,72,72.79,-56.15,39.47,0.0,0.0,6.69
114,Viet Tri,40,VN,scattered clouds,2020-06-20 03:19:46,66,21.3,105.43,89.6,0.0,0.0,8.05
115,Port Alfred,17,ZA,few clouds,2020-06-20 03:18:16,33,-33.59,26.89,69.01,0.0,0.0,14.0
116,Yima,87,CN,overcast clouds,2020-06-20 03:19:46,99,34.74,111.88,86.0,0.0,0.0,10.69
117,Sri Aman,20,MY,few clouds,2020-06-20 03:19:46,83,1.24,111.46,80.6,0.0,0.0,3.36
118,Korla,0,CN,clear sky,2020-06-20 03:19:47,70,41.76,86.15,73.99,0.0,0.0,8.93
119,Souillac,75,MU,shower rain,2020-06-20 03:19:47,73,-20.52,57.52,71.6,0.0,0.0,14.99
120,Kodiak,75,US,broken clouds,2020-06-20 03:18:06,71,57.79,-152.41,53.6,0.0,0.0,13.87
121,Santa Fe,9,AR,fog,2020-06-20 03:19:47,100,-31.63,-60.7,55.0,0.0,0.0,3.36
122,Longyearbyen,20,SJ,few clouds,2020-06-20 03:16:57,75,78.22,15.64,41.0,0.0,0.0,10.29
123,Carberry,20,CA,few clouds,2020-06-20 03:19:48,47,49.87,-99.36,57.2,0.0,0.0,5.82
124,Mikhaylovka,44,RU,scattered clouds,2020-06-20 03:19:48,64,50.06,43.24,67.59,0.0,0.0,9.42
125,Lompoc,34,US,scattered clouds,2020-06-20 03:13:43,77,34.64,-120.46,62.6,0.0,0.0,12.75
126,Ormara,42,PK,scattered clouds,2020-06-20 03:18:51,78,25.21,64.64,85.01,0.0,0.0,7.2
127,Tiksi,0,RU,clear sky,2020-06-20 03:18:26,34,71.69,128.87,68.43,0.0,0.0,5.44
128,Vanimo,45,PG,light rain,2020-06-20 03:19:43,72,-2.67,141.3,84.58,0.71,0.71,3.71
129,Reyes,33,BO,scattered clouds,2020-06-20 03:19:49,79,-14.32,-67.38,73.8,0.0,0.0,1.86
130,Luang Prabang,75,LA,broken clouds,2020-06-20 03:19:50,78,19.89,102.13,82.4,0.0,0.0,2.33
131,Sao Joao Da Barra,56,BR,broken clouds,2020-06-20 03:18:55,91,-21.64,-41.05,71.56,0.0,0.0,10.67
132,Asosa,84,ET,broken clouds,2020-06-20 03:19:50,84,10.07,34.53,61.95,0.0,0.0,3.47
133,Pyshchug,96,RU,overcast clouds,2020-06-20 03:19:50,92,58.89,45.71,54.05,0.0,0.0,10.07
134,Severodvinsk,40,RU,scattered clouds,2020-06-20 03:19:15,70,64.56,39.83,46.4,0.0,0.0,8.95
135,Ilulissat,0,GL,clear sky,2020-06-20 03:17:58,75,69.22,-51.1,41.0,0.0,0.0,8.05
136,Lebu,100,CL,light rain,2020-06-20 03:17:45,86,-37.62,-73.65,52.48,0.22,0.22,16.73
137,Puerto Carreno,100,CO,overcast clouds,2020-06-20 03:19:49,89,6.19,-67.49,76.32,0.0,0.0,3.11
138,Kaitangata,66,NZ,broken clouds,2020-06-20 03:18:22,81,-46.28,169.85,48.0,0.0,0.0,5.99
139,Beira,40,MZ,scattered clouds,2020-06-20 03:19:52,82,-19.84,34.84,64.4,0.0,0.0,11.41
140,Chapais,40,CA,scattered clouds,2020-06-20 03:17:49,68,49.78,-74.85,71.6,0.0,0.0,5.82
141,San Carlos De Bariloche,75,AR,broken clouds,2020-06-20 03:19:25,86,-41.15,-71.31,37.4,0.0,0.0,5.82
142,Wanaka,33,NZ,scattered clouds,2020-06-20 03:19:53,79,-44.7,169.15,41.0,0.0,0.0,1.01
143,Lyaskelya,71,RU,broken clouds,2020-06-20 03:19:53,68,61.77,31.02,51.73,0.0,0.0,7.11
144,Cabo San Lucas,42,MX,scattered clouds,2020-06-20 03:18:10,76,22.89,-109.91,82.99,0.0,0.0,14.54
145,Cherskiy,5,RU,clear sky,2020-06-20 03:18:37,24,68.75,161.3,83.07,0.0,0.0,5.97
146,Krasnoselkup,99,RU,moderate rain,2020-06-20 03:19:54,88,65.7,82.47,44.8,1.41,1.41,15.3
147,Gizo,56,SB,light rain,2020-06-20 03:18:48,70,-8.1,156.84,84.22,0.13,0.13,1.5
148,Kondoa,10,TZ,clear sky,2020-06-20 03:19:54,91,-4.9,35.78,54.82,0.0,0.0,1.57
149,Samarai,66,PG,light rain,2020-06-20 03:18:33,85,-10.62,150.67,79.61,0.31,0.31,12.75
150,Mar Del Plata,0,AR,clear sky,2020-06-20 03:18:22,93,-38.0,-57.56,55.99,0.0,0.0,9.17
151,Svetlogorsk,75,BY,broken clouds,2020-06-20 03:19:55,93,52.63,29.73,63.54,0.0,0.0,6.24
152,Kargil,80,IN,broken clouds,2020-06-20 03:19:55,44,34.57,76.1,51.24,0.0,0.0,4.45
153,Vallenar,0,CL,clear sky,2020-06-20 03:17:27,37,-28.57,-70.76,61.65,0.0,0.0,1.39
154,Nouadhibou,0,MR,clear sky,2020-06-20 03:19:56,73,20.93,-17.03,71.6,0.0,0.0,18.34
155,Port Hardy,90,CA,light intensity shower rain,2020-06-20 03:18:26,88,50.7,-127.42,62.6,0.0,0.0,4.7
156,Jining,100,CN,overcast clouds,2020-06-20 03:19:56,45,35.41,116.58,84.69,0.0,0.0,10.85
157,Teya,100,RU,light rain,2020-06-20 03:19:56,86,60.38,92.63,54.14,0.23,0.23,2.42
158,Lavrentiya,0,RU,clear sky,2020-06-20 03:18:12,40,65.58,-171.0,55.58,0.0,0.0,15.17
159,Aiquile,0,BO,clear sky,2020-06-20 03:19:57,84,-18.2,-65.18,53.42,0.0,0.0,3.6
160,Shadegan,0,IR,clear sky,2020-06-20 03:19:57,42,30.65,48.66,87.8,0.0,0.0,6.93
161,Norman Wells,75,CA,broken clouds,2020-06-20 03:18:13,41,65.28,-126.83,78.8,0.0,0.0,4.7
162,Castres,11,FR,few clouds,2020-06-20 03:19:58,87,43.58,2.17,54.0,0.0,0.0,3.36
163,East London,0,ZA,clear sky,2020-06-20 03:18:05,31,-33.02,27.91,66.9,0.0,0.0,10.69
164,Iqaluit,75,CA,broken clouds,2020-06-20 03:17:09,86,63.75,-68.51,37.4,0.0,0.0,8.05
165,Geraldton,0,AU,clear sky,2020-06-20 03:17:50,45,-28.77,114.6,62.6,0.0,0.0,21.92
166,Katsuura,62,JP,broken clouds,2020-06-20 03:17:48,63,35.13,140.3,84.0,0.0,0.0,5.01
167,Marsa Matruh,0,EG,clear sky,2020-06-20 03:19:59,82,31.35,27.25,66.2,0.0,0.0,5.82
168,Saint-Joseph,75,RE,broken clouds,2020-06-20 03:19:59,68,-21.37,55.62,69.8,0.0,0.0,14.99
169,Handan,19,CN,few clouds,2020-06-20 03:19:59,43,36.6,114.47,88.93,0.0,0.0,12.15
170,Bluff,95,NZ,overcast clouds,2020-06-20 03:18:08,75,-46.6,168.33,47.12,0.0,0.0,10.31
171,Mbigou,7,GA,clear sky,2020-06-20 03:17:07,98,-1.9,11.91,64.92,0.0,0.0,1.1
172,Trogir,99,HR,overcast clouds,2020-06-20 03:20:00,52,43.51,16.25,69.8,0.0,0.0,9.17
173,Aden,0,YE,clear sky,2020-06-20 03:20:00,81,12.78,45.04,86.09,0.0,0.0,5.1
174,Tilichiki,6,RU,clear sky,2020-06-20 03:20:00,70,60.47,166.1,58.8,0.0,0.0,8.88
175,Rottingdean,100,GB,overcast clouds,2020-06-20 03:16:50,93,50.81,-0.06,59.0,0.0,0.0,1.99
176,Georgetown,20,MY,few clouds,2020-06-20 03:17:31,88,5.41,100.34,80.6,0.0,0.0,5.82
177,Santa Cruz De Tenerife,90,ES,overcast clouds,2020-06-20 03:20:01,88,28.47,-16.25,66.0,0.0,0.0,6.93
178,Hami,100,CN,light rain,2020-06-20 03:20:01,57,42.8,93.45,68.86,0.75,0.75,29.59
179,Iquitos,51,PE,broken clouds,2020-06-20 03:16:33,93,-3.75,-73.25,72.41,0.0,0.0,1.86
180,Tuy Hoa,96,VN,overcast clouds,2020-06-20 03:20:02,56,13.08,109.3,89.83,0.0,0.0,3.87
181,Eyl,40,SO,scattered clouds,2020-06-20 03:20:02,56,7.98,49.82,82.63,0.0,0.0,29.19
182,Raul Soares,100,BR,overcast clouds,2020-06-20 03:20:03,87,-20.1,-42.45,65.57,0.0,0.0,1.3
183,Portland,1,US,clear sky,2020-06-20 03:15:15,44,45.52,-122.68,82.0,0.0,0.0,6.93
184,Port Hedland,0,AU,clear sky,2020-06-20 03:20:03,24,-20.32,118.57,82.4,0.0,0.0,19.46
185,Shihezi,0,CN,clear sky,2020-06-20 03:20:03,18,44.3,86.03,83.61,0.0,0.0,4.56
186,Biak,92,ID,light rain,2020-06-20 03:20:01,78,-0.91,122.88,82.36,0.84,0.84,6.15
187,Waipawa,100,NZ,light rain,2020-06-20 03:17:40,91,-41.41,175.52,57.99,0.17,0.17,10.69
188,Mogadishu,75,SO,broken clouds,2020-06-20 03:20:04,85,2.04,45.34,77.4,0.0,0.0,16.35
189,Abu Samrah,13,SY,few clouds,2020-06-20 03:20:04,74,35.3,37.18,66.92,0.0,0.0,16.58
190,Sao Jose Da Coroa Grande,25,BR,scattered clouds,2020-06-20 03:20:05,82,-8.9,-35.15,76.57,0.0,0.0,12.03
191,Lazaro Cardenas,2,MX,clear sky,2020-06-20 03:20:05,71,17.96,-102.2,79.48,0.0,0.0,3.85
192,Lufilufi,90,WS,heavy intensity drizzle,2020-06-20 03:20:05,100,-13.87,-171.6,78.8,0.0,0.0,6.93
193,Mount Gambier,90,AU,overcast clouds,2020-06-20 03:18:36,93,-37.83,140.77,50.0,0.0,0.0,11.41
194,Taltal,9,CL,clear sky,2020-06-20 03:20:06,75,-25.4,-70.48,56.48,0.0,0.0,4.03
195,Marawi,17,PH,light rain,2020-06-20 03:18:20,79,8.0,124.29,84.0,0.84,0.84,5.99
196,College,75,US,broken clouds,2020-06-20 03:20:06,77,64.86,-147.8,60.8,0.0,0.0,4.7
197,Mana,10,GF,clear sky,2020-06-20 03:20:07,87,5.66,-53.78,78.22,0.0,0.0,7.85
198,Port-Cartier,75,CA,broken clouds,2020-06-20 03:19:58,87,50.03,-66.87,54.0,0.0,0.0,11.41
199,Ous,100,RU,overcast clouds,2020-06-20 03:20:07,91,60.91,61.52,53.29,0.0,0.0,11.5
200,Gushikawa,40,JP,scattered clouds,2020-06-20 03:20:08,84,26.35,127.87,87.8,0.0,0.0,20.8
201,Luderitz,0,NA,clear sky,2020-06-20 03:20:08,34,-26.65,15.16,64.4,0.0,0.0,1.12
202,Keetmanshoop,0,NA,clear sky,2020-06-20 03:20:08,34,-26.58,18.13,53.6,0.0,0.0,10.29
203,Arlit,0,NE,clear sky,2020-06-20 03:20:08,14,18.74,7.39,90.86,0.0,0.0,7.27
204,Esperance,90,AU,overcast clouds,2020-06-20 03:18:05,81,-33.87,121.9,53.6,0.0,0.0,4.7
205,Bambous Virieux,75,MU,shower rain,2020-06-20 03:17:42,73,-20.34,57.76,71.6,0.0,0.0,14.99
206,Preston,5,GB,clear sky,2020-06-20 03:18:34,89,53.77,-2.72,51.01,0.0,0.0,5.75
207,Maceio,40,BR,scattered clouds,2020-06-20 03:20:09,88,-9.67,-35.74,75.2,0.0,0.0,3.36
208,Mizan Teferi,86,ET,overcast clouds,2020-06-20 03:16:14,91,6.98,35.58,59.67,0.0,0.0,1.81
209,Komsomolskiy,0,UZ,clear sky,2020-06-20 03:20:10,23,40.43,71.72,82.4,0.0,0.0,2.24
210,Oranjestad,40,AW,scattered clouds,2020-06-20 03:15:02,83,12.52,-70.03,82.4,0.0,0.0,26.4
211,Cabedelo,40,BR,light rain,2020-06-20 03:18:23,82,-6.98,-34.83,77.67,0.21,0.21,18.03
212,Maues,64,BR,broken clouds,2020-06-20 03:20:11,73,-3.38,-57.72,78.58,0.0,0.0,2.44
213,Abnub,0,EG,clear sky,2020-06-20 03:20:11,40,27.27,31.15,73.4,0.0,0.0,10.29
214,Inhambane,12,MZ,few clouds,2020-06-20 03:20:11,85,-23.86,35.38,64.2,0.0,0.0,6.55
215,Narsaq,96,GL,overcast clouds,2020-06-20 03:18:02,75,60.92,-46.05,41.0,0.0,0.0,6.93
216,Jacmel,1,HT,clear sky,2020-06-20 03:20:12,70,18.23,-72.53,84.2,0.0,0.0,9.17
217,Weligama,100,LK,overcast clouds,2020-06-20 03:20:12,81,5.97,80.42,82.99,0.0,0.0,11.5
218,Khatanga,100,RU,overcast clouds,2020-06-20 03:17:39,53,71.97,102.5,60.19,0.0,0.0,9.31
219,Camopi,49,GF,scattered clouds,2020-06-20 03:20:12,97,3.17,-52.32,72.55,0.0,0.0,1.81
220,Gamba,40,GA,scattered clouds,2020-06-20 03:20:13,94,-2.65,10.0,71.35,0.0,0.0,2.15
221,Noshiro,75,JP,broken clouds,2020-06-20 03:20:13,60,40.2,140.02,71.6,0.0,0.0,13.87
222,Fairbanks,90,US,light rain,2020-06-20 03:17:50,77,64.84,-147.72,60.8,0.25,0.25,1.97
223,Gboko,74,NG,broken clouds,2020-06-20 03:20:13,84,7.32,9.0,73.15,0.0,0.0,2.71
224,Pangnirtung,2,CA,clear sky,2020-06-20 03:20:14,75,66.15,-65.71,38.64,0.0,0.0,1.99
225,Svetlaya,99,RU,overcast clouds,2020-06-20 03:20:14,78,46.54,138.33,53.06,0.0,0.0,8.81
226,Vila,0,PT,clear sky,2020-06-20 03:18:06,90,42.03,-8.16,50.0,0.0,0.0,1.01
227,Sungairaya,86,ID,overcast clouds,2020-06-20 03:20:14,61,0.7,108.9,87.3,0.0,0.0,3.53
228,Lakatoro,75,VU,broken clouds,2020-06-20 03:19:41,78,-16.1,167.42,80.6,0.0,0.0,5.82
229,Dwarka,7,IN,clear sky,2020-06-20 03:20:15,76,22.24,68.97,86.72,0.0,0.0,18.05
230,Balkhash,0,KZ,clear sky,2020-06-20 03:20:15,27,46.84,74.98,62.6,0.0,0.0,22.37
231,Panaba,55,MX,broken clouds,2020-06-20 03:20:15,90,21.28,-88.27,77.14,0.0,0.0,7.05
232,Aklavik,75,CA,broken clouds,2020-06-20 03:20:04,93,68.22,-135.01,50.0,0.0,0.0,8.05
233,Curvelo,94,BR,overcast clouds,2020-06-20 03:20:16,86,-18.76,-44.43,65.7,0.0,0.0,4.52
234,Plastun,93,RU,overcast clouds,2020-06-20 03:20:16,71,44.76,136.29,56.48,0.0,0.0,6.11
235,Deputatskiy,0,RU,clear sky,2020-06-20 03:18:23,23,69.3,139.9,83.05,0.0,0.0,9.01
236,Namatanai,27,PG,light rain,2020-06-20 03:20:17,69,-3.67,152.43,85.15,0.19,0.19,2.17
237,Rabo De Peixe,75,PT,broken clouds,2020-06-20 03:20:17,88,37.8,-25.58,64.4,0.0,0.0,11.41
238,Iskateley,100,RU,light rain,2020-06-20 03:20:17,86,67.68,53.15,41.45,0.55,0.55,23.55
239,Fare,6,PF,clear sky,2020-06-20 03:20:17,75,-16.7,-151.02,81.16,0.0,0.0,3.65
240,Eureka,100,US,overcast clouds,2020-06-20 03:16:42,100,40.8,-124.16,59.0,0.0,0.0,4.72
241,Santa Cruz,40,BO,scattered clouds,2020-06-20 03:19:36,83,-17.8,-63.17,75.2,0.0,0.0,13.87
242,Omis,52,HR,broken clouds,2020-06-20 03:20:18,52,43.44,16.69,69.8,0.0,0.0,9.17
243,Dhemaji,75,IN,mist,2020-06-20 03:20:18,94,27.48,94.58,80.6,0.0,0.0,4.7
244,Okhotsk,73,RU,broken clouds,2020-06-20 03:20:19,81,59.38,143.3,51.51,0.0,0.0,11.97
245,Coquimbo,0,CL,clear sky,2020-06-20 03:15:25,87,-29.95,-71.34,53.6,0.0,0.0,9.17
246,Saint-Pierre,75,RE,broken clouds,2020-06-20 03:20:19,68,-21.34,55.48,69.8,0.0,0.0,14.99
247,Klaksvik,99,FO,overcast clouds,2020-06-20 03:17:44,100,62.23,-6.59,50.0,0.0,0.0,18.34
248,Chisindia,13,RO,few clouds,2020-06-20 03:20:19,100,46.28,22.1,57.2,0.0,0.0,3.36
249,Faanui,2,PF,clear sky,2020-06-20 03:18:30,73,-16.48,-151.75,80.44,0.0,0.0,1.97
250,Kudal,99,IN,light rain,2020-06-20 03:20:20,81,16.03,73.68,82.6,0.82,0.82,3.78
251,Penalva,21,BR,few clouds,2020-06-20 03:20:20,96,-3.29,-45.17,72.61,0.0,0.0,1.72
252,Tateyama,75,JP,broken clouds,2020-06-20 03:20:20,69,34.98,139.87,79.0,0.0,0.0,9.17
253,Summerside,0,CA,clear sky,2020-06-20 03:20:21,72,46.4,-63.79,70.0,0.0,0.0,3.0
254,Broken Hill,0,AU,clear sky,2020-06-20 03:17:42,41,-31.95,141.43,60.8,0.0,0.0,14.99
255,Los Llanos De Aridane,13,ES,few clouds,2020-06-20 03:20:21,68,28.66,-17.92,71.6,0.0,0.0,10.29
256,Hong Gai,75,VN,broken clouds,2020-06-20 03:20:21,75,20.96,107.09,89.6,0.0,0.0,16.11
257,Qaqortoq,100,GL,overcast clouds,2020-06-20 03:18:54,75,60.72,-46.03,41.0,0.0,0.0,6.93
258,Airai,97,TL,overcast clouds,2020-06-20 03:16:59,75,-8.93,125.41,69.98,0.0,0.0,5.91
259,Muroto,75,JP,broken clouds,2020-06-20 03:18:46,57,33.28,134.15,77.0,0.0,0.0,9.17
260,Pegnitz,90,DE,overcast clouds,2020-06-20 03:20:22,100,49.76,11.54,57.0,0.0,0.0,4.7
261,Mapimi,75,MX,broken clouds,2020-06-20 03:20:22,23,25.82,-103.85,93.2,0.0,0.0,4.59
262,Linao,26,PH,light rain,2020-06-20 03:20:23,63,7.17,124.97,88.88,0.25,0.25,0.38
263,Ust-Nera,0,RU,clear sky,2020-06-20 03:20:23,27,64.57,143.2,81.36,0.0,0.0,5.41
264,Gien,99,FR,overcast clouds,2020-06-20 03:20:23,89,47.69,2.63,57.0,0.0,0.0,4.43
265,Bambanglipuro,54,ID,broken clouds,2020-06-20 03:20:23,72,-7.95,110.28,83.75,0.0,0.0,13.47
266,Talnakh,75,RU,broken clouds,2020-06-20 03:17:44,93,69.49,88.4,46.4,0.0,0.0,11.18
267,Muros,63,ES,broken clouds,2020-06-20 03:20:24,92,42.78,-9.06,60.01,0.0,0.0,3.62
268,Cockburn Town,0,TC,clear sky,2020-06-20 03:20:24,82,21.46,-71.14,82.38,0.0,0.0,19.91
269,Mancio Lima,0,BR,clear sky,2020-06-20 03:20:24,75,-7.61,-72.9,74.79,0.0,0.0,1.59
270,Zykovo,75,RU,broken clouds,2020-06-20 03:20:25,81,55.95,93.15,53.6,0.0,0.0,6.71
271,Alofi,22,NU,few clouds,2020-06-20 03:18:18,65,-19.06,-169.92,78.8,0.0,0.0,10.29
272,Antigonish,1,CA,clear sky,2020-06-20 03:20:25,44,45.62,-62.0,77.0,0.0,0.0,12.75
273,Pevek,24,RU,few clouds,2020-06-20 03:18:45,67,69.7,170.31,44.01,0.0,0.0,10.25
274,Xichang,99,CN,light rain,2020-06-20 03:17:10,73,27.9,102.26,73.24,0.11,0.11,2.64
275,Necochea,0,AR,clear sky,2020-06-20 03:20:26,86,-38.55,-58.74,45.0,0.0,0.0,4.0
276,Isfana,0,KG,clear sky,2020-06-20 03:20:26,24,39.84,69.53,82.4,0.0,0.0,8.95
277,Susanville,1,US,clear sky,2020-06-20 03:17:22,21,40.42,-120.65,80.6,0.0,0.0,9.17
278,Tocopilla,3,CL,clear sky,2020-06-20 03:20:27,70,-22.09,-70.2,60.78,0.0,0.0,6.2
279,Angren,0,UZ,clear sky,2020-06-20 03:20:27,19,41.02,70.14,74.52,0.0,0.0,2.19
280,Petropavlovka,96,RU,light rain,2020-06-20 03:20:27,52,50.61,105.32,70.65,0.41,0.41,0.51
281,Pedreiras,0,BR,light rain,2020-06-20 03:20:27,95,-4.57,-44.6,72.0,0.23,0.23,2.1
282,Honolulu,75,US,broken clouds,2020-06-20 03:17:18,51,21.31,-157.86,84.2,0.0,0.0,20.8
283,Coihaique,88,CL,overcast clouds,2020-06-20 03:18:53,86,-45.58,-72.07,37.4,0.0,0.0,4.7
284,Aksarka,100,RU,overcast clouds,2020-06-20 03:18:00,47,66.56,67.8,54.95,0.0,0.0,14.74
285,Karasjok,0,NO,clear sky,2020-06-20 03:20:29,57,69.47,25.51,48.2,0.0,0.0,12.75
286,Norilsk,75,RU,broken clouds,2020-06-20 03:20:29,93,69.35,88.2,46.4,0.0,0.0,11.18
287,Luancheng,10,CN,clear sky,2020-06-20 03:20:29,43,37.88,114.65,87.8,0.0,0.0,4.47
288,Ahipara,100,NZ,moderate rain,2020-06-20 03:18:28,84,-35.17,173.17,57.56,1.03,1.03,12.53
289,Itarema,0,BR,clear sky,2020-06-20 03:20:29,90,-2.92,-39.92,75.49,0.0,0.0,10.49
290,Khasan,91,RU,overcast clouds,2020-06-20 03:19:43,87,42.43,130.64,60.96,0.0,0.0,10.22
291,Ambanja,100,MG,light rain,2020-06-20 03:20:30,92,-13.68,48.45,68.88,0.2,0.2,1.1
292,Tiarei,40,PF,scattered clouds,2020-06-20 03:20:30,70,-17.53,-149.33,84.2,0.0,0.0,4.7
293,Macroom,20,IE,few clouds,2020-06-20 03:20:30,93,51.9,-8.95,46.99,0.0,0.0,3.36
294,Raudeberg,24,NO,few clouds,2020-06-20 03:20:31,87,61.99,5.14,60.8,0.0,0.0,3.36
295,Gouyave,20,GD,few clouds,2020-06-20 03:20:31,83,12.16,-61.73,80.6,0.0,0.0,13.87
296,Ocampo,59,MX,light rain,2020-06-20 03:20:31,69,21.65,-101.5,64.49,0.24,0.24,9.98
297,Barranca,77,PE,broken clouds,2020-06-20 03:20:31,88,-10.75,-77.77,61.63,0.0,0.0,5.95
298,Maniitsoq,92,GL,overcast clouds,2020-06-20 03:20:32,86,65.42,-52.9,37.0,0.0,0.0,12.53
299,Vostok,99,RU,overcast clouds,2020-06-20 03:18:21,60,46.49,135.88,62.15,0.0,0.0,2.62
300,Mbanza-Ngungu,0,CD,clear sky,2020-06-20 03:20:32,96,-5.25,14.87,63.43,0.0,0.0,3.8
301,Lima,75,PE,broken clouds,2020-06-20 03:20:01,88,-12.04,-77.03,62.6,0.0,0.0,13.87
302,Nikolskoye,20,RU,few clouds,2020-06-20 03:17:43,77,59.7,30.79,60.8,0.0,0.0,13.42
303,Moron,20,AR,few clouds,2020-06-20 03:20:33,97,-34.65,-58.62,54.0,0.0,0.0,2.8
304,Alghero,0,IT,clear sky,2020-06-20 03:20:33,93,40.56,8.32,60.01,0.0,0.0,1.12
305,Kenora,40,CA,scattered clouds,2020-06-20 03:20:33,76,49.82,-94.43,57.2,0.0,0.0,6.93
306,Palmer,75,US,broken clouds,2020-06-20 03:20:14,69,42.16,-72.33,73.4,0.0,0.0,6.93
307,Cidreira,93,BR,light rain,2020-06-20 03:20:34,92,-30.18,-50.21,66.16,0.75,0.75,7.0
308,Saint-Augustin,100,CA,overcast clouds,2020-06-20 03:18:23,93,51.23,-58.65,44.91,0.0,0.0,8.75
309,Coahuayana,25,MX,scattered clouds,2020-06-20 03:20:35,76,18.73,-103.68,78.48,0.0,0.0,1.12
310,Svetlyy,18,RU,few clouds,2020-06-20 03:20:35,100,54.67,20.13,62.6,0.0,0.0,4.63
311,Lasa,75,IT,broken clouds,2020-06-20 03:18:41,100,46.62,10.7,46.99,0.0,0.0,1.12
312,Tura,90,IN,overcast clouds,2020-06-20 03:18:17,85,25.52,90.22,79.0,0.0,0.0,3.94
313,Mier,1,MX,clear sky,2020-06-20 03:20:36,74,26.43,-99.15,84.2,0.0,0.0,4.7
314,Jaciara,56,BR,broken clouds,2020-06-20 03:20:36,75,-15.97,-54.97,67.33,0.0,0.0,3.8
315,Strezhevoy,40,RU,light intensity shower rain,2020-06-20 03:20:36,93,60.73,77.59,42.8,0.0,0.0,6.71
316,Rocha,65,UY,broken clouds,2020-06-20 03:18:56,93,-34.48,-54.33,50.81,0.0,0.0,6.53
317,Ostrovnoy,100,RU,overcast clouds,2020-06-20 03:18:13,84,68.05,39.51,43.25,0.0,0.0,21.61
318,Lodwar,34,KE,scattered clouds,2020-06-20 03:20:37,50,3.12,35.6,82.18,0.0,0.0,5.68
319,Zhigansk,20,RU,few clouds,2020-06-20 03:19:00,32,66.77,123.37,77.16,0.0,0.0,9.37
320,Nuuk,67,GL,broken clouds,2020-06-20 03:20:37,89,64.18,-51.72,35.6,0.0,0.0,0.36
321,Chicama,53,PE,broken clouds,2020-06-20 03:20:38,82,-7.84,-79.15,64.2,0.0,0.0,6.29
322,Petropavlovsk-Kamchatskiy,20,RU,few clouds,2020-06-20 03:18:34,66,53.05,158.65,53.6,0.0,0.0,15.66
323,Tessalit,0,ML,clear sky,2020-06-20 03:17:38,24,20.2,1.01,89.02,0.0,0.0,5.37
324,Dingle,8,PH,clear sky,2020-06-20 03:19:41,61,11.0,122.67,88.05,0.0,0.0,7.2
325,Rock Sound,75,BS,broken clouds,2020-06-20 03:20:39,86,24.9,-76.2,80.89,0.0,0.0,11.68
326,Sorong,40,ID,light rain,2020-06-20 03:19:53,72,-0.88,131.25,84.02,0.16,0.16,5.06
327,Carahue,100,CL,overcast clouds,2020-06-20 03:20:39,81,-38.7,-73.17,50.0,0.0,0.0,11.41
328,Bubaque,100,GW,overcast clouds,2020-06-20 03:20:39,82,11.28,-15.83,81.63,0.0,0.0,11.25
329,Awjilah,0,LY,clear sky,2020-06-20 03:20:39,26,29.11,21.29,77.97,0.0,0.0,8.03
330,Dikson,0,RU,clear sky,2020-06-20 03:17:43,81,73.51,80.55,36.91,0.0,0.0,4.27
331,Newport,89,GB,overcast clouds,2020-06-20 03:20:07,96,51.59,-3.0,55.99,0.0,0.0,6.91
332,Hailar,96,CN,light rain,2020-06-20 03:20:40,78,49.2,119.7,66.58,0.12,0.12,9.28
333,Sao Filipe,0,CV,clear sky,2020-06-20 03:18:04,81,14.9,-24.5,76.15,0.0,0.0,8.43
334,Madison,1,US,clear sky,2020-06-20 03:17:21,73,34.73,-86.57,73.99,0.0,0.0,2.68
335,Kumeny,100,RU,light rain,2020-06-20 03:20:41,97,58.11,49.92,59.9,0.44,0.44,9.46
336,Novobirilyussy,100,RU,overcast clouds,2020-06-20 03:20:41,90,56.95,90.67,46.58,0.0,0.0,4.7
337,Wawa,100,NG,overcast clouds,2020-06-20 03:20:41,90,9.9,4.42,75.63,0.0,0.0,4.63
338,Zorritos,0,PE,clear sky,2020-06-20 03:20:41,75,-3.68,-80.68,72.55,0.0,0.0,5.37
339,Almaznyy,40,RU,scattered clouds,2020-06-20 03:20:42,53,48.04,40.05,73.4,0.0,0.0,13.42
340,Padang,86,ID,overcast clouds,2020-06-20 03:20:42,59,-0.95,100.35,86.04,0.0,0.0,4.25
341,Sao Miguel Do Araguaia,64,BR,broken clouds,2020-06-20 03:20:42,61,-13.28,-50.16,68.9,0.0,0.0,1.45
342,Pionki,71,PL,broken clouds,2020-06-20 03:20:43,42,51.48,21.45,64.99,0.0,0.0,6.08
343,Riverton,92,US,overcast clouds,2020-06-20 03:20:24,35,40.52,-111.94,66.99,0.0,0.0,3.44
344,Manga,86,BF,overcast clouds,2020-06-20 03:20:43,72,11.66,-1.07,78.21,0.0,0.0,5.57
345,Camocim,5,BR,clear sky,2020-06-20 03:20:44,87,-2.9,-40.84,76.33,0.0,0.0,11.59
346,Ribeira Grande,73,PT,broken clouds,2020-06-20 03:18:37,88,38.52,-28.7,64.87,0.0,0.0,17.78
347,Ancud,90,CL,overcast clouds,2020-06-20 03:20:44,93,-41.87,-73.82,48.99,0.0,0.0,11.41
348,Aniva,75,RU,broken clouds,2020-06-20 03:20:45,71,46.71,142.53,51.8,0.0,0.0,17.9
349,Luanda,75,AO,broken clouds,2020-06-20 03:18:38,88,-8.84,13.23,75.2,0.0,0.0,2.24
350,Limuru,75,KE,broken clouds,2020-06-20 03:20:45,87,-1.1,36.65,59.0,0.0,0.0,6.93
351,Mushie,70,CD,broken clouds,2020-06-20 03:20:45,65,-3.02,16.9,70.12,0.0,0.0,2.71
352,Thinadhoo,99,MV,moderate rain,2020-06-20 03:19:07,74,0.53,72.93,83.16,1.06,1.06,9.69
353,Udachnyy,0,RU,clear sky,2020-06-20 03:20:46,31,66.42,112.4,75.2,0.0,0.0,6.71
354,Mitu,100,CO,overcast clouds,2020-06-20 03:20:46,97,1.2,-70.17,72.34,0.0,0.0,0.6
355,Bilma,64,NE,broken clouds,2020-06-20 03:20:46,16,18.69,12.92,83.89,0.0,0.0,5.64
356,Nanortalik,100,GL,light rain,2020-06-20 03:18:38,92,60.14,-45.24,38.68,0.12,0.12,12.82
357,Mount Isa,0,AU,clear sky,2020-06-20 03:20:47,29,-20.73,139.5,78.8,0.0,0.0,9.17
358,Zhifang,90,CN,overcast clouds,2020-06-20 03:20:47,88,30.35,114.32,73.4,0.0,0.0,8.95
359,Hanamaki,40,JP,scattered clouds,2020-06-20 03:20:47,47,39.38,141.12,77.0,0.0,0.0,10.29
360,Ust-Kuyga,24,RU,few clouds,2020-06-20 03:20:47,16,70.02,135.6,90.36,0.0,0.0,4.38
361,Dillon,75,US,broken clouds,2020-06-20 03:16:01,100,34.42,-79.37,73.0,0.0,0.0,6.4
362,Nara,75,JP,broken clouds,2020-06-20 03:18:51,60,34.69,135.8,77.0,0.0,0.0,6.93
363,Inverell,15,AU,few clouds,2020-06-20 03:18:06,53,-29.78,151.12,64.99,0.0,0.0,1.99
364,Sirvintos,2,LT,clear sky,2020-06-20 03:20:49,68,55.05,24.95,68.0,0.0,0.0,2.24
365,Zhezkazgan,0,KZ,clear sky,2020-06-20 03:19:00,34,47.8,67.71,57.2,0.0,0.0,8.95
366,Saint Anthony,75,US,broken clouds,2020-06-20 03:20:49,56,45.02,-93.22,71.6,0.0,0.0,8.05
367,Banfora,94,BF,overcast clouds,2020-06-20 03:20:49,86,10.63,-4.77,75.49,0.0,0.0,2.8
368,Amahai,100,ID,moderate rain,2020-06-20 03:20:51,83,-3.33,128.92,81.14,1.53,1.53,10.98
369,Lodja,15,CD,few clouds,2020-06-20 03:20:51,61,-3.48,23.43,68.76,0.0,0.0,0.36
370,Charters Towers,77,AU,broken clouds,2020-06-20 03:20:51,60,-20.1,146.27,72.54,0.0,0.0,10.65
371,Yakeshi,100,CN,light rain,2020-06-20 03:20:51,85,49.28,120.73,63.9,0.22,0.22,8.12
372,Fortuna,90,US,overcast clouds,2020-06-20 03:17:41,93,40.6,-124.16,57.99,0.0,0.0,6.93
373,Vertientes,16,CU,few clouds,2020-06-20 03:20:52,100,21.26,-78.15,78.8,0.0,0.0,8.05
374,Toora-Khem,1,RU,clear sky,2020-06-20 03:20:52,41,52.47,96.11,67.89,0.0,0.0,4.09
375,Bethel,1,US,clear sky,2020-06-20 03:18:49,82,41.37,-73.41,69.01,0.0,0.0,4.32
376,Carauari,100,BR,overcast clouds,2020-06-20 03:20:52,97,-4.88,-66.9,73.38,0.0,0.0,1.7
377,Constitucion,97,CL,light rain,2020-06-20 03:18:19,92,-35.33,-72.42,54.19,0.14,0.14,6.98
378,Mahanje,60,TZ,broken clouds,2020-06-20 03:20:53,85,-9.93,35.33,57.7,0.0,0.0,2.1
379,Tandil,0,AR,clear sky,2020-06-20 03:20:39,68,-37.32,-59.13,50.0,0.0,0.0,1.01
380,Santa Vitoria Do Palmar,90,BR,overcast clouds,2020-06-20 03:20:53,94,-33.52,-53.37,55.13,0.0,0.0,7.09
381,Samana,6,DO,clear sky,2020-06-20 03:20:54,85,19.21,-69.34,78.98,0.0,0.0,8.32
382,Adre,92,TD,overcast clouds,2020-06-20 03:20:54,71,13.47,22.2,76.21,0.0,0.0,4.92
383,Hobyo,88,SO,overcast clouds,2020-06-20 03:19:06,69,5.35,48.53,78.04,0.0,0.0,19.98
384,Kinsale,20,IE,few clouds,2020-06-20 03:20:54,93,51.71,-8.53,46.99,0.0,0.0,3.36
385,High Level,20,CA,few clouds,2020-06-20 03:20:55,38,58.52,-117.14,77.0,0.0,0.0,8.05
386,Wajima,40,JP,scattered clouds,2020-06-20 03:20:55,64,37.4,136.9,69.8,0.0,0.0,4.7
387,Miami,90,US,overcast clouds,2020-06-20 03:18:49,88,25.77,-80.19,78.01,0.0,0.0,4.7
388,Mezhdurechensk,100,RU,light rain,2020-06-20 03:20:55,93,53.69,88.06,52.86,0.61,0.61,2.66
389,Navahrudak,30,BY,scattered clouds,2020-06-20 03:20:55,98,53.6,25.83,60.67,0.0,0.0,6.38
390,Paveh,0,IR,clear sky,2020-06-20 03:20:56,44,35.04,46.36,59.0,0.0,0.0,1.97
391,Rognan,51,NO,broken clouds,2020-06-20 03:20:56,77,67.1,15.39,60.01,0.0,0.0,6.8
392,Grand Baie,89,MU,overcast clouds,2020-06-20 03:20:56,79,-20.02,57.58,70.0,0.0,0.0,8.99
393,Aswan,0,EG,clear sky,2020-06-20 03:20:57,28,24.09,32.91,76.41,0.0,0.0,8.66
394,Amalapuram,20,IN,few clouds,2020-06-20 03:20:57,74,16.58,82.02,87.8,0.0,0.0,16.11
395,Matara,100,LK,overcast clouds,2020-06-20 03:20:57,80,5.95,80.54,82.87,0.0,0.0,11.32
396,Isangel,40,VU,scattered clouds,2020-06-20 03:18:40,69,-19.55,169.27,78.8,0.0,0.0,9.17
397,Tibiri,49,NE,scattered clouds,2020-06-20 03:20:58,52,13.56,7.05,82.85,0.0,0.0,10.02
398,Katherine,40,AU,scattered clouds,2020-06-20 03:20:58,31,-14.47,132.27,89.6,0.0,0.0,14.99
399,Queanbeyan,40,AU,scattered clouds,2020-06-20 03:20:58,59,-35.35,149.23,61.0,0.0,0.0,16.11
400,Husavik,90,IS,overcast clouds,2020-06-20 03:20:58,93,66.04,-17.34,44.6,0.0,0.0,5.82
401,Placido De Castro,21,BR,few clouds,2020-06-20 03:20:59,89,-10.34,-67.19,73.44,0.0,0.0,1.63
402,Malindi,39,KE,scattered clouds,2020-06-20 03:20:59,78,-3.22,40.12,76.93,0.0,0.0,18.5
403,Billings,40,US,shower rain,2020-06-20 03:20:59,55,45.78,-108.5,66.0,0.0,0.0,4.7
404,Khuzhir,81,RU,broken clouds,2020-06-20 03:20:59,69,53.19,107.34,52.45,0.0,0.0,9.62
405,Alyangula,75,AU,broken clouds,2020-06-20 03:21:00,51,-13.85,136.42,84.2,0.0,0.0,11.41
406,Magway,98,MM,overcast clouds,2020-06-20 03:21:00,75,20.15,94.92,82.4,0.0,0.0,16.28
407,Kremnica,75,SK,broken clouds,2020-06-20 03:21:00,100,48.71,18.92,59.0,0.0,0.0,4.09
408,Aksu,38,CN,scattered clouds,2020-06-20 03:21:00,20,41.12,80.26,76.75,0.0,0.0,2.42
409,Alice Town,100,BS,overcast clouds,2020-06-20 03:21:01,81,25.72,-79.3,82.44,0.0,0.0,9.15
410,Rio Gallegos,46,AR,scattered clouds,2020-06-20 03:18:48,80,-51.62,-69.22,33.8,0.0,0.0,8.05
411,San Quintin,0,MX,clear sky,2020-06-20 03:19:35,81,30.48,-115.95,63.05,0.0,0.0,12.1
412,Victor Harbor,12,AU,few clouds,2020-06-20 03:21:01,95,-35.57,138.62,54.0,0.0,0.0,14.97
413,Vanavara,4,RU,clear sky,2020-06-20 03:21:02,35,60.34,102.28,74.23,0.0,0.0,7.74
414,Anadyr,20,RU,few clouds,2020-06-20 03:21:02,38,64.75,177.48,77.0,0.0,0.0,8.95
415,Langsa,97,ID,overcast clouds,2020-06-20 03:19:52,61,4.47,97.97,87.55,0.0,0.0,2.95
416,Maltahohe,0,NA,clear sky,2020-06-20 03:21:02,65,-24.83,16.98,40.24,0.0,0.0,2.62
417,Pahrump,0,US,clear sky,2020-06-20 03:21:03,9,36.21,-115.98,89.01,0.0,0.0,4.12
418,Peniche,0,PT,clear sky,2020-06-20 03:21:03,85,39.36,-9.38,64.0,0.0,0.0,8.01
419,Paamiut,88,GL,overcast clouds,2020-06-20 03:21:03,87,61.99,-49.67,38.79,0.0,0.0,8.75
420,Phu Ly,86,VN,overcast clouds,2020-06-20 03:16:07,59,20.54,105.91,91.9,0.0,0.0,9.08
421,Caraquet,1,CA,clear sky,2020-06-20 03:21:03,93,47.79,-64.94,59.0,0.0,0.0,4.7
422,Grand Gaube,81,MU,broken clouds,2020-06-20 03:18:58,80,-20.01,57.66,70.0,0.0,0.0,10.0
423,Karratha,0,AU,clear sky,2020-06-20 03:17:53,27,-20.74,116.85,80.74,0.0,0.0,20.24
424,Vredendal,52,ZA,broken clouds,2020-06-20 03:21:04,66,-31.67,18.5,56.1,0.0,0.0,2.46
425,Khor,54,RU,broken clouds,2020-06-20 03:21:04,69,47.89,134.95,64.65,0.0,0.0,7.99
426,Kifri,0,IQ,clear sky,2020-06-20 03:21:05,22,34.7,44.97,80.82,0.0,0.0,8.03
427,Khotiv,76,UA,broken clouds,2020-06-20 03:21:05,77,50.33,30.47,66.99,0.0,0.0,11.18
428,Tabuk,0,PH,light rain,2020-06-20 03:18:10,66,17.42,121.44,87.15,0.19,0.19,4.47
429,Katobu,98,ID,light rain,2020-06-20 03:21:05,79,-4.94,122.53,82.6,0.99,0.99,9.75
430,Pisco,0,PE,mist,2020-06-20 03:21:06,82,-13.7,-76.22,62.6,0.0,0.0,10.29
431,Nidzica,4,PL,clear sky,2020-06-20 03:21:06,96,53.36,20.43,60.53,0.0,0.0,3.71
432,Quatre Cocos,75,MU,shower rain,2020-06-20 03:21:06,73,-20.21,57.76,71.6,0.0,0.0,14.99
433,Namibe,0,AO,clear sky,2020-06-20 03:18:35,54,-15.2,12.15,70.25,0.0,0.0,4.45
434,Kavieng,26,PG,scattered clouds,2020-06-20 03:17:49,68,-2.57,150.8,85.66,0.0,0.0,7.02
435,Banda Aceh,85,ID,overcast clouds,2020-06-20 03:21:07,64,5.56,95.32,85.91,0.0,0.0,6.58
436,Grosseto,0,IT,clear sky,2020-06-20 03:21:07,82,42.83,11.25,59.0,0.0,0.0,2.24
437,Kapit,96,MY,light rain,2020-06-20 03:21:07,87,2.02,112.93,80.6,0.95,0.95,1.14
438,Verkhoyansk,2,RU,clear sky,2020-06-20 03:21:08,20,67.54,133.38,90.18,0.0,0.0,5.55
439,Oksfjord,32,NO,scattered clouds,2020-06-20 03:21:08,70,70.24,22.35,46.4,0.0,0.0,4.7
440,Arica,18,CL,few clouds,2020-06-20 03:21:08,83,-18.48,-70.3,57.54,0.0,0.0,0.56
441,Erzin,5,TR,clear sky,2020-06-20 03:21:08,89,36.96,36.2,68.0,0.0,0.0,4.0
442,Businga,100,CD,light rain,2020-06-20 03:21:09,95,3.33,20.88,70.11,0.46,0.46,0.43
443,San Julian,47,MX,scattered clouds,2020-06-20 03:21:09,46,21.02,-102.17,72.68,0.0,0.0,7.25
444,Manitouwadge,24,CA,few clouds,2020-06-20 03:21:09,96,49.12,-85.84,57.96,0.0,0.0,6.78
445,Atherton,1,GB,clear sky,2020-06-20 03:21:09,94,53.52,-2.49,50.0,0.0,0.0,5.5
446,Aksarayskiy,75,RU,broken clouds,2020-06-20 03:21:10,39,46.79,48.01,82.4,0.0,0.0,22.37
447,Caravelas,11,BR,few clouds,2020-06-20 03:21:10,89,-17.71,-39.25,71.89,0.0,0.0,5.35
448,Areia Branca,4,BR,clear sky,2020-06-20 03:21:11,87,-4.96,-37.14,75.81,0.0,0.0,13.69
449,Araceli,37,PH,scattered clouds,2020-06-20 03:21:11,67,10.55,119.99,84.67,0.0,0.0,2.42
450,Chapleau,100,CA,overcast clouds,2020-06-20 03:21:11,89,47.84,-83.4,63.68,0.0,0.0,3.71
451,Kathu,40,TH,scattered clouds,2020-06-20 03:21:11,74,7.92,98.33,86.0,0.0,0.0,5.82
452,Tadine,33,NC,scattered clouds,2020-06-20 03:21:12,73,-21.55,167.88,72.82,0.0,0.0,15.41
453,Kaohsiung,75,TW,broken clouds,2020-06-20 03:21:12,59,22.62,120.31,89.6,0.0,0.0,9.17
454,Ambulu,87,ID,overcast clouds,2020-06-20 03:21:12,71,-8.35,113.61,82.8,0.0,0.0,5.39
455,Bara,82,NG,light rain,2020-06-20 03:21:12,92,10.37,10.73,72.37,0.2,0.2,12.06
456,Mecca,66,SA,broken clouds,2020-06-20 03:16:58,19,21.43,39.83,82.33,0.0,0.0,5.84
457,Vestmannaeyjar,100,IS,moderate rain,2020-06-20 03:18:15,92,63.44,-20.27,50.04,1.29,1.29,22.21
458,Sao Gabriel Da Cachoeira,100,BR,light rain,2020-06-20 03:21:13,96,-0.13,-67.09,72.84,0.17,0.17,1.7
459,Bosaso,99,SO,overcast clouds,2020-06-20 03:21:13,46,11.28,49.18,90.39,0.0,0.0,6.82
460,Ayna,23,PE,few clouds,2020-06-20 03:21:13,69,-12.65,-73.92,59.88,0.0,0.0,0.87
461,Vila Franca Do Campo,75,PT,broken clouds,2020-06-20 03:15:19,88,37.72,-25.43,64.4,0.0,0.0,12.75
462,Nadym,29,RU,scattered clouds,2020-06-20 03:18:31,50,65.53,72.52,51.96,0.0,0.0,10.16
463,Akdepe,0,TM,clear sky,2020-06-20 03:21:14,32,42.06,59.38,80.6,0.0,0.0,11.41
464,Snezhnogorsk,75,RU,broken clouds,2020-06-20 03:21:15,81,69.19,33.25,42.8,0.0,0.0,4.47
465,Garowe,66,SO,broken clouds,2020-06-20 03:21:15,58,8.41,48.48,77.77,0.0,0.0,26.57
466,Rogovatoye,58,RU,broken clouds,2020-06-20 03:21:15,90,51.23,38.38,66.36,0.0,0.0,6.06
467,Snyder,75,US,thunderstorm with light rain,2020-06-20 03:21:15,68,32.72,-100.92,71.6,0.0,0.0,20.8
468,Diamantino,41,BR,scattered clouds,2020-06-20 03:21:16,66,-14.41,-56.45,71.19,0.0,0.0,5.61
469,Hsinchu,41,TW,scattered clouds,2020-06-20 03:16:44,53,24.8,120.97,90.0,0.0,0.0,11.01
470,Zenzeli,99,RU,overcast clouds,2020-06-20 03:21:16,30,45.92,47.05,84.69,0.0,0.0,22.03
471,Morondava,36,MG,scattered clouds,2020-06-20 03:19:06,62,-20.28,44.28,69.57,0.0,0.0,10.51
472,San Cristobal,84,VE,broken clouds,2020-06-20 03:21:17,91,7.77,-72.22,65.95,0.0,0.0,3.58
473,Tauramena,71,CO,broken clouds,2020-06-20 03:21:17,90,5.02,-72.75,72.05,0.0,0.0,1.99
474,Pokrovsk,87,UA,overcast clouds,2020-06-20 03:21:18,60,48.28,37.18,67.03,0.0,0.0,11.12
475,Yenagoa,100,NG,overcast clouds,2020-06-20 03:21:18,94,4.92,6.26,74.66,0.0,0.0,3.27
476,Wunsiedel,100,DE,light rain,2020-06-20 03:21:18,88,50.03,12.02,55.99,0.25,0.25,3.0
477,Okha,97,RU,overcast clouds,2020-06-20 03:21:19,86,53.57,142.95,46.94,0.0,0.0,7.7
478,Zelenogorskiy,100,RU,overcast clouds,2020-06-20 03:21:19,71,55.03,87.0,51.8,0.0,0.0,6.71
479,Capoterra,0,IT,clear sky,2020-06-20 03:21:19,49,39.18,8.97,70.0,0.0,0.0,10.29
480,Saint-Georges,20,GD,few clouds,2020-06-20 03:21:20,83,12.06,-61.75,80.6,0.0,0.0,13.87
481,Hamilton,1,US,clear sky,2020-06-20 03:18:24,77,39.18,-84.53,75.99,0.0,0.0,0.29
482,Sturgeon Bay,1,US,clear sky,2020-06-20 03:21:20,77,44.83,-87.38,73.4,0.0,0.0,8.05
483,Kiunga,94,PG,light rain,2020-06-20 03:19:01,73,-6.12,141.29,83.25,0.15,0.15,3.8
484,Catamarca,0,AR,clear sky,2020-06-20 03:21:21,59,-28.47,-65.79,57.0,0.0,0.0,1.99
485,Vilyuysk,0,RU,clear sky,2020-06-20 03:21:21,33,63.76,121.62,81.66,0.0,0.0,6.64
486,Ugoofaaru,19,MV,few clouds,2020-06-20 03:21:05,80,5.67,73.0,83.44,0.0,0.0,10.18
487,Davila,40,PH,scattered clouds,2020-06-20 03:21:21,70,18.47,120.58,89.6,0.0,0.0,11.41
488,Umm Kaddadah,5,SD,clear sky,2020-06-20 03:21:22,43,13.6,26.69,84.51,0.0,0.0,5.99
489,Nizhnyaya Salda,93,RU,overcast clouds,2020-06-20 03:21:22,65,58.08,60.72,60.22,0.0,0.0,12.59
490,Mitsamiouli,97,KM,overcast clouds,2020-06-20 03:21:22,74,-11.38,43.28,77.97,0.0,0.0,20.42
491,Morecambe,43,GB,scattered clouds,2020-06-20 03:18:33,100,54.07,-2.86,55.99,0.0,0.0,5.99
492,Hualmay,40,PE,scattered clouds,2020-06-20 03:18:36,86,-11.1,-77.61,61.74,0.0,0.0,8.16
493,Saldanha,98,ZA,overcast clouds,2020-06-20 03:18:09,82,-33.01,17.94,57.2,0.0,0.0,1.12
494,Hovd,99,MN,overcast clouds,2020-06-20 03:21:23,31,48.01,91.64,66.52,0.0,0.0,3.29
495,Haines Junction,100,CA,overcast clouds,2020-06-20 03:21:23,34,60.75,-137.51,65.39,0.0,0.0,4.79
496,Kirs,100,RU,overcast clouds,2020-06-20 03:21:23,93,59.34,52.24,54.99,0.0,0.0,11.68
497,Talara,7,PE,clear sky,2020-06-20 03:21:24,85,-4.58,-81.27,65.8,0.0,0.0,17.36
498,Gold Coast,90,AU,overcast clouds,2020-06-20 03:17:04,68,-28.0,153.43,70.0,0.0,0.0,9.17
499,Sioux Lookout,40,CA,scattered clouds,2020-06-20 03:21:24,87,50.1,-91.92,51.8,0.0,0.0,2.24
500,Ambilobe,100,MG,light rain,2020-06-20 03:21:24,96,-13.2,49.05,69.28,0.99,0.99,1.9
501,Kamenka,70,RU,broken clouds,2020-06-20 03:21:25,52,51.32,42.77,68.0,0.0,0.0,1.99
502,Collie,0,AU,clear sky,2020-06-20 03:21:25,83,-33.37,116.15,53.01,0.0,0.0,1.99
503,Lumby,75,CA,broken clouds,2020-06-20 03:21:25,49,50.25,-118.97,73.4,0.0,0.0,13.87
504,Rio Grande,99,BR,light rain,2020-06-20 03:19:07,96,-32.03,-52.1,60.01,0.56,0.56,4.59
505,Itacarambi,65,BR,broken clouds,2020-06-20 03:21:26,81,-15.1,-44.09,68.34,0.0,0.0,3.02
506,Griffin,1,US,clear sky,2020-06-20 03:20:17,78,33.25,-84.26,73.4,0.0,0.0,2.73
507,San Patricio,5,MX,clear sky,2020-06-20 03:17:55,78,19.22,-104.7,82.4,0.0,0.0,9.17
508,Dakar,6,SN,clear sky,2020-06-20 03:20:02,83,14.69,-17.44,78.8,0.0,0.0,6.93
509,Leesburg,1,US,clear sky,2020-06-20 03:16:30,88,39.12,-77.56,70.0,0.0,0.0,5.66
510,Margate,100,GB,overcast clouds,2020-06-20 03:21:27,85,51.38,1.39,57.99,0.0,0.0,1.01
511,Adrar,5,MR,clear sky,2020-06-20 03:18:06,18,20.5,-10.07,92.64,0.0,0.0,11.32
512,Flinders,13,AU,few clouds,2020-06-20 03:19:18,67,-34.58,150.86,66.0,0.0,0.0,7.0
513,Kambar,0,PK,clear sky,2020-06-20 03:21:27,44,27.59,68.0,93.7,0.0,0.0,9.42
514,Bisira,100,PA,overcast clouds,2020-06-20 03:21:28,100,8.52,-81.71,60.01,0.0,0.0,2.73
515,Une,20,CO,few clouds,2020-06-20 03:21:28,76,4.4,-74.03,55.4,0.0,0.0,5.82
516,Parati,0,BR,clear sky,2020-06-20 03:21:28,62,-23.22,-44.71,69.85,0.0,0.0,4.07
517,Fort Dodge,90,US,overcast clouds,2020-06-20 03:19:43,77,42.5,-94.17,68.0,0.0,0.0,3.36
518,Lake Park,40,US,scattered clouds,2020-06-20 03:21:29,94,26.8,-80.07,79.0,0.0,0.0,5.82
519,Fort Madison,1,US,clear sky,2020-06-20 03:19:04,100,40.63,-91.32,69.8,0.0,0.0,3.36
520,Bathsheba,40,BB,shower rain,2020-06-20 03:18:56,88,13.22,-59.52,78.8,0.0,0.0,21.92
521,Clovis,40,US,scattered clouds,2020-06-20 03:21:29,18,36.83,-119.7,93.2,0.0,0.0,12.75
522,Trairi,6,BR,clear sky,2020-06-20 03:21:30,91,-3.28,-39.27,74.73,0.0,0.0,6.76
523,Hameenlinna,0,FI,clear sky,2020-06-20 03:21:30,81,61.0,24.46,63.0,0.0,0.0,6.62
524,Colimes,9,EC,clear sky,2020-06-20 03:21:30,78,-1.55,-80.02,77.0,0.0,0.0,13.87
525,Lewistown,90,US,light rain,2020-06-20 03:21:30,100,40.6,-77.57,66.99,0.25,0.25,2.28
526,Wynyard,97,AU,light rain,2020-06-20 03:21:31,91,-41.0,145.72,51.01,0.72,0.72,5.01
527,Pedernales,0,DO,clear sky,2020-06-20 03:21:31,68,18.04,-71.74,81.81,0.0,0.0,7.63
528,Wilmington,1,US,clear sky,2020-06-20 03:21:31,88,34.23,-77.94,73.99,0.0,0.0,4.7
529,Taonan,64,CN,broken clouds,2020-06-20 03:21:31,53,45.33,122.78,79.92,0.0,0.0,8.88
530,Ipora,81,BR,broken clouds,2020-06-20 03:21:32,66,-16.44,-51.12,65.52,0.0,0.0,2.26
531,Noumea,75,NC,broken clouds,2020-06-20 03:19:08,73,-22.28,166.46,71.6,0.0,0.0,20.8
532,Comodoro Rivadavia,88,AR,overcast clouds,2020-06-20 03:21:32,53,-45.87,-67.5,50.0,0.0,0.0,16.11
533,Polovinnoye,96,RU,overcast clouds,2020-06-20 03:21:32,57,54.79,65.99,55.18,0.0,0.0,11.32
534,Loudi,90,CN,overcast clouds,2020-06-20 03:21:32,80,27.73,111.99,81.81,0.0,0.0,3.78
535,Yoichi,75,JP,light intensity shower rain,2020-06-20 03:21:33,82,43.2,140.77,63.0,0.0,0.0,17.22
536,Nemuro,75,JP,light intensity shower rain,2020-06-20 03:21:33,93,43.32,145.57,55.4,0.0,0.0,10.29
537,Bisalpur,5,IN,clear sky,2020-06-20 03:21:33,56,28.3,79.8,90.16,0.0,0.0,11.52
538,Visby,0,SE,clear sky,2020-06-20 03:21:33,93,57.64,18.3,60.01,0.0,0.0,3.36
539,Sibolga,100,ID,overcast clouds,2020-06-20 03:21:34,80,1.74,98.78,78.73,0.0,0.0,2.57
540,Hurghada,0,EG,clear sky,2020-06-20 03:21:34,36,27.26,33.81,80.6,0.0,0.0,18.34
541,Conceicao Do Araguaia,19,BR,few clouds,2020-06-20 03:21:34,78,-8.26,-49.26,75.2,0.0,0.0,1.54
